{
  "pamplona": {
    "lat": 42.8181992,
    "lon": -1.6440089,
    "display_name": "Pamplona / Iruña, Iruñerria, Navarra, Navarra / Nafarroa, España"
  },
  "nan": null,
  "tudela": {
    "lat": 42.063972,
    "lon": -1.6053391,
    "display_name": "Tudela, Navarra, Navarra / Nafarroa, 31500, España"
  },
  "olite": {
    "lat": 42.4813623,
    "lon": -1.6512224,
    "display_name": "Olite / Erriberri, Erdialdea, Navarra, Navarra / Nafarroa, 31390, España"
  },
  "tafalla": {
    "lat": 42.5278279,
    "lon": -1.6744823,
    "display_name": "Tafalla, Erdialdea, Navarra, Navarra / Nafarroa, 31300, España"
  },
  "burlada": {
    "lat": 42.8230299,
    "lon": -1.614076,
    "display_name": "Burlada / Burlata, Iruñerria, Navarra, Navarra / Nafarroa, 31600, España"
  },
  "estella": {
    "lat": 42.672094,
    "lon": -2.0314834,
    "display_name": "Estella-Lizarra, Estellerria, Navarra, Navarra / Nafarroa, 31200, España"
  },
  "sangüesa": {
    "lat": 42.5754899,
    "lon": -1.283336,
    "display_name": "Sangüesa / Zangoza, Zangozerria, Navarra, Navarra / Nafarroa, España"
  },
  "goizueta": {
    "lat": 43.171748,
    "lon": -1.8640588,
    "display_name": "Goizueta, Larraun-Leitzaldea, Navarra, Navarra / Nafarroa, 31754, España"
  },
  "lesaka": {
    "lat": 43.2471212,
    "lon": -1.7043191,
    "display_name": "Lesaka, Baztan-Bidasoa, Navarra, Navarra / Nafarroa, España"
  },
  "buñuel": {
    "lat": 41.9797495,
    "lon": -1.444881,
    "display_name": "Buñuel, Navarra, Navarra / Nafarroa, 31540, España"
  },
  "mendavia": {
    "lat": 42.4443874,
    "lon": -2.2002884,
    "display_name": "Mendavia, Estellerria, Navarra, Navarra / Nafarroa, 31587, España"
  },
  "logroño": {
    "lat": 42.4661196,
    "lon": -2.4396676,
    "display_name": "Logroño, La Rioja, España"
  },
  "león": {
    "lat": 42.5989995,
    "lon": -5.5682413,
    "display_name": "León, Castilla y León, España"
  }
}